[
  {
    "Version": 1,
    "ID": "5820ee76-0ef5-4b08-9201-9e50a70d1734",
    "Name": "Postazione con defibrillatore DAE - Lissone",
    "Alias": "postazione_con_defibrillatore_dae_-_lissone",
    "Level1": [
      {
        "Value": "Lissone",
        "Alias": "lissone"
      }
    ],
    "Level2": [
      {
        "Value": "Sanitaria",
        "Alias": "sanitaria"
      }
    ],
    "Adresses": [
      {
        "Title": "Biblioteca Civica di Lissone",
        "Value": "Piazza IV Novembre, 2, 20035 Lissone MI",
        "Note": "Posizione approssimata",
        "Latitude": "45.609343",
        "Longitude": "9.243133"
      },
      {
        "Title": "Bosco urbano e bacino lacustre",
        "Value": "Via Guglielmo Pepe, 12, 20851 Lissone MB",
        "Note": "Posizione approssimata",
        "Latitude": "45.621816",
        "Longitude": "9.256436"
      },
      {
        "Title": "Stazione di Lissone-Muggiò",
        "Value": "Via della Pinacoteca, 1, 20851 Lissone MB",
        "Note": "Posizione approssimata",
        "Latitude": "45.606174",
        "Longitude": "9.235595"
      },
      {
        "Title": "Comune Di Lissone Palazzo Terragni",
        "Value": "Piazza Libertà, Lissone MB",
        "Note": "Posizione approssimata",
        "Latitude": "45.610842",
        "Longitude": "9.240416"
      },
      {
        "Title": "Piazzale Umiliati - Piazza Mercato",
        "Value": "Piazzale Umiliati - Piazza Mercato",
        "Note": "Posizione approssimata",
        "Latitude": "45.614344",
        "Longitude": "9.232695"
      }
    ],
    "Contacts": []
  }
]